City_ID,City,Lat,Lng,Max Temp,Humidity,Cloudiness,Wind Speed,Country,Date
0,la palma,33.8464,-118.0467,18.730000000000018,69,100,1.54,US,1670015459
1,avarua,-21.2078,-159.775,28.03000000000003,78,40,4.12,CK,1670015460
2,vaitape,-16.5167,-151.75,26.860000000000014,77,43,8.05,PF,1670015460
3,tanabe,33.7333,135.3667,5.9500000000000455,71,0,1.65,JP,1670015461
4,pangnirtung,66.1451,-65.7125,-8.0,86,100,6.17,CA,1670015461
5,jamestown,42.097,-79.2353,6.970000000000027,45,100,7.2,US,1670015184
6,champerico,14.3,-91.9167,28.439999999999998,68,0,2.92,GT,1670015462
7,khatanga,71.9667,102.5,-14.739999999999952,96,97,2.81,RU,1670015463
8,busselton,-33.65,115.3333,13.490000000000009,93,13,3.49,AU,1670015464
9,cape town,-33.9258,18.4232,16.860000000000014,70,93,1.79,ZA,1670015464
10,tagusao,9.1924,117.8141,26.200000000000045,84,97,2.03,PH,1670015465
11,mayumba,-3.432,10.6554,24.480000000000018,85,100,1.83,GA,1670015465
12,kavieng,-2.5744,150.7967,26.900000000000034,79,100,1.56,PG,1670015466
13,saskylakh,71.9167,114.0833,-12.479999999999961,95,100,5.24,RU,1670015467
14,ciudad ojeda,10.1964,-71.3082,26.850000000000023,77,15,2.63,VE,1670015467
15,tuktoyaktuk,69.4541,-133.0374,-13.0,85,100,6.17,CA,1670015468
16,balgazyn,51.0,95.2,-32.16999999999999,99,26,0.57,RU,1670015468
17,sitka,57.0531,-135.33,0.9399999999999977,37,0,1.54,US,1670015389
18,pochutla,15.7432,-96.4661,33.23000000000002,47,77,3.47,MX,1670015469
19,iqaluit,63.7506,-68.5145,-9.149999999999977,92,100,9.77,CA,1670015216
20,bilma,18.6853,12.9164,22.32000000000005,19,98,2.63,NE,1670015380
21,port alfred,-33.5906,26.891,17.879999999999995,67,23,3.13,ZA,1670015470
22,klaksvik,62.2266,-6.589,9.510000000000048,98,100,6.21,FO,1670015471
23,esperance,-33.8667,121.9,15.54000000000002,86,4,3.46,AU,1670015472
24,juneau,58.3019,-134.4197,-1.5499999999999545,86,40,0.0,US,1670015232
25,lavrentiya,65.5833,-171.0,0.28000000000002956,99,100,5.21,RU,1670015473
26,bluff,-46.6,168.3333,10.450000000000045,74,100,7.66,NZ,1670015473
27,mount gambier,-37.8333,140.7667,16.090000000000032,66,6,1.96,AU,1670015474
28,mataura,-46.1927,168.8643,10.270000000000039,57,100,2.59,NZ,1670015475
29,gat,31.61,34.7642,16.33000000000004,66,53,2.36,IL,1670015222
30,albany,42.6001,-73.9662,4.57000000000005,55,25,0.45,US,1670015476
31,hualmay,-11.0964,-77.6139,22.33000000000004,71,57,5.39,PE,1670015477
32,palmas,-10.2128,-48.3603,23.930000000000007,94,40,1.03,BR,1670015477
33,tasiilaq,65.6145,-37.6368,0.09000000000003183,76,88,0.91,GL,1670015478
34,shalinskoye,55.7228,93.7594,-19.919999999999987,85,100,5.15,RU,1670015479
35,manaus,-3.1019,-60.025,25.28000000000003,94,75,3.09,BR,1670015479
36,hofn,64.2539,-15.2082,4.920000000000016,71,10,3.33,IS,1670015480
37,nikolskoye,59.7035,30.7861,-7.060000000000002,82,100,2.54,RU,1670015481
38,cidreira,-30.1811,-50.2056,23.850000000000023,87,35,4.6,BR,1670015481
39,esil,51.9556,66.4042,-17.799999999999983,89,13,5.93,KZ,1670015482
40,atuona,-9.8,-139.0333,25.560000000000002,70,21,9.23,PF,1670015482
41,mahebourg,-20.4081,57.7,21.25,88,20,1.54,MU,1670015483
42,daniel flores,9.3355,-83.6694,24.379999999999995,76,75,1.12,CR,1670015483
43,ust-nera,64.5667,143.2,-38.98999999999998,100,94,2.24,RU,1670015484
44,vaini,-21.2,-175.2,29.090000000000032,79,20,0.51,TO,1670015485
45,port elizabeth,-33.918,25.5701,18.390000000000043,73,20,11.83,ZA,1670015485
46,matagami,49.7502,-77.6328,-0.5799999999999841,81,100,5.93,CA,1670015486
47,ushuaia,-54.8,-68.3,10.79000000000002,71,75,18.52,AR,1670015487
48,constitucion,-35.3333,-72.4167,18.470000000000027,55,7,5.85,CL,1670015487
49,bethel,41.3712,-73.414,6.050000000000011,60,100,3.6,US,1670015200
50,victoria,22.2855,114.1577,17.920000000000016,76,100,4.47,HK,1670015210
51,castro,-24.7911,-50.0119,22.25,76,57,0.94,BR,1670015488
52,cabo san lucas,22.8909,-109.9124,29.78000000000003,71,0,2.06,MX,1670015413
53,kapaa,22.0752,-159.319,26.99000000000001,84,100,6.69,US,1670015489
54,samarai,-10.6167,150.6667,26.879999999999995,80,100,2.13,PG,1670015490
55,fairbanks,64.8378,-147.7164,-10.989999999999952,82,100,0.0,US,1670015386
56,cattolica,43.9575,12.7376,8.28000000000003,88,75,1.54,IT,1670015491
57,bambous virieux,-20.3428,57.7575,21.230000000000018,88,20,1.54,MU,1670015491
58,rikitea,-23.1203,-134.9692,24.0,72,93,5.76,PF,1670015492
59,celestun,20.8667,-90.4,28.439999999999998,68,28,7.26,MX,1670015493
60,buraydah,26.326,43.975,18.30000000000001,46,8,3.69,SA,1670015266
61,sao filipe,14.8961,-24.4956,22.920000000000016,66,100,4.98,CV,1670015494
62,batamshinskiy,50.5594,58.2747,-17.899999999999977,95,100,7.88,KZ,1670015495
63,benguela,-12.5763,13.4055,25.370000000000005,78,100,1.2,AO,1670015495
64,georgetown,5.4112,100.3354,26.24000000000001,89,20,0.0,MY,1670015482
65,viedma,-40.8135,-62.9967,34.58000000000004,14,1,7.27,AR,1670015486
66,puerto ayora,-0.7393,-90.3518,25.980000000000018,86,86,3.58,EC,1670015384
67,alice springs,-23.7,133.8833,13.75,58,5,0.0,AU,1670015497
68,carnarvon,-24.8667,113.6333,20.560000000000002,79,6,5.58,AU,1670015498
69,miri,4.4148,114.0089,24.629999999999995,92,94,2.21,MY,1670015319
70,hermanus,-34.4187,19.2345,14.890000000000043,69,79,5.8,ZA,1670015499
71,narsaq,60.9167,-46.05,1.1200000000000045,97,100,7.17,GL,1670015500
72,codrington,-38.2667,141.9667,16.07000000000005,76,0,2.18,AU,1670015500
73,hithadhoo,-0.6,73.0833,27.629999999999995,74,99,4.73,MV,1670015501
74,east london,-33.0153,27.9116,17.52000000000004,59,55,9.03,ZA,1670015502
75,camacha,33.0833,-16.3333,14.680000000000007,67,40,11.32,PT,1670015503
76,olafsvik,64.8945,-23.7142,5.8799999999999955,88,79,3.63,IS,1670015503
77,alofi,-19.0595,-169.9187,28.939999999999998,74,75,4.12,NU,1670015504
78,upernavik,72.7868,-56.1549,-4.759999999999991,55,100,5.4,GL,1670015340
79,saldanha,-33.0117,17.9442,15.890000000000043,73,70,7.97,ZA,1670015505
80,new norfolk,-42.7826,147.0587,14.400000000000034,70,100,0.89,AU,1670015506
81,camara de lobos,32.6333,-16.9667,18.730000000000018,76,75,4.47,PT,1670015506
82,severo-kurilsk,50.6789,156.125,-3.7399999999999523,65,93,6.89,RU,1670015507
83,san policarpo,12.1791,125.5072,27.150000000000034,85,100,6.79,PH,1670015508
84,manzhouli,49.6,117.4333,-23.579999999999984,88,51,6.55,CN,1670015508
85,lardos,36.0942,28.0157,16.640000000000043,78,66,2.71,GR,1670015509
86,krutaya gorka,55.3649,73.2231,-19.069999999999965,92,18,2.63,RU,1670015509
87,qaanaaq,77.484,-69.3632,-18.659999999999968,62,100,3.38,GL,1670015510
88,erenhot,43.6475,111.9767,-17.289999999999964,69,3,6.36,CN,1670015510
89,feijo,-8.1642,-70.3536,28.260000000000048,66,100,1.65,BR,1670015511
90,sambava,-14.2667,50.1667,24.439999999999998,82,100,0.97,MG,1670015512
91,la ronge,55.1001,-105.2842,-17.319999999999965,82,57,3.67,CA,1670015512
92,mercedes,-34.6515,-59.4307,29.360000000000014,11,1,5.06,AR,1670015513
93,yellowknife,62.456,-114.3525,-33.70999999999998,75,20,3.09,CA,1670015845
94,pacific grove,36.6177,-121.9166,14.75,58,0,3.13,US,1670015387
95,falmouth,50.1544,-5.0711,4.5,87,20,3.09,GB,1670015514
96,saint-philippe,-21.3585,55.7679,22.77000000000004,78,9,2.3,RE,1670015515
97,salalah,17.0151,54.0924,24.05000000000001,78,20,2.57,OM,1670015515
98,chumikan,54.7183,135.315,-24.46999999999997,80,76,7.7,RU,1670015516
99,jalu,29.0331,21.5482,14.990000000000009,43,91,4.05,LY,1670015516
100,hammerfest,70.6634,23.6821,2.25,64,0,1.03,NO,1670015517
101,faanui,-16.4833,-151.75,26.850000000000023,77,44,8.02,PF,1670015518
102,kabalo,-6.05,26.9167,20.189999999999998,95,96,0.94,CD,1670015518
103,coihaique,-45.5752,-72.0662,15.340000000000032,55,75,5.66,CL,1670015519
104,tiksi,71.6872,128.8694,-21.809999999999974,85,100,7.47,RU,1670015519
105,arraial do cabo,-22.9661,-42.0278,23.920000000000016,83,75,12.35,BR,1670015520
106,xiuyan,40.2928,123.2744,-2.819999999999993,42,63,5.61,CN,1670015520
107,leningradskiy,69.3833,178.4167,-11.339999999999975,93,100,1.95,RU,1670015521
108,norman wells,65.282,-126.8329,-10.979999999999961,85,100,2.57,CA,1670015522
109,izumo,35.3667,132.7667,3.6899999999999977,65,100,2.2,JP,1670015522
110,chuy,-33.6971,-53.4616,20.49000000000001,79,97,5.65,UY,1670015523
111,barrow,71.2906,-156.7887,0.010000000000047748,93,100,12.86,US,1670015523
112,punta arenas,-53.15,-70.9167,11.060000000000002,50,40,15.95,CL,1670015524
113,ughelli,5.4899,6.0074,25.680000000000007,84,91,1.87,NG,1670015524
114,thompson,55.7435,-97.8558,-22.95999999999998,88,6,1.87,CA,1670015525
115,yeppoon,-23.1333,150.7333,20.879999999999995,73,10,7.08,AU,1670015526
116,clyde river,70.4692,-68.5914,-21.869999999999976,77,100,19.55,CA,1670015526
117,umm kaddadah,13.6017,26.6876,21.439999999999998,20,11,6.57,SD,1670015527
118,lebu,-37.6167,-73.65,16.760000000000048,75,12,5.11,CL,1670015528
119,muros,42.7762,-9.0603,8.420000000000016,93,0,2.2,ES,1670015528
120,san andres,12.5847,-81.7006,29.010000000000048,70,20,7.72,CO,1670015529
121,veraval,20.9,70.3667,22.74000000000001,60,74,3.15,IN,1670015530
122,lesnoy,57.6198,63.0784,-20.94999999999999,94,5,1.62,RU,1670015531
123,hilo,19.7297,-155.09,30.160000000000025,96,100,3.6,US,1670015387
124,ust-maya,60.4167,134.5333,-31.849999999999966,99,100,0.46,RU,1670015531
125,saint george,37.1041,-113.5841,15.330000000000041,35,0,3.6,US,1670015461
126,cherskiy,68.75,161.3,-30.46999999999997,98,25,2.05,RU,1670015533
127,polunochnoye,60.8697,60.4153,-21.059999999999974,98,5,1.49,RU,1670015533
128,bredasdorp,-34.5322,20.0403,14.980000000000018,71,72,5.01,ZA,1670015534
129,marsh harbour,26.5412,-77.0636,24.180000000000007,62,19,11.45,BS,1670015534
130,riyadh,24.6877,46.7219,18.08000000000004,45,4,2.45,SA,1670015401
131,josefina,8.2,123.5333,20.510000000000048,95,100,0.98,PH,1670015535
132,yasnyy,51.0333,59.8742,-18.569999999999965,91,60,7.33,RU,1670015536
133,villanueva de la serena,38.9766,-5.7974,7.560000000000002,74,0,2.53,ES,1670015536
134,padang,-0.9492,100.3543,23.03000000000003,93,100,2.02,ID,1670015537
135,borba,-4.3878,-59.5939,26.30000000000001,83,100,1.39,BR,1670015538
136,buchanan,5.8808,-10.0467,25.560000000000002,84,100,3.19,LR,1670015381
137,burgeo,47.6167,-57.6152,0.07000000000005002,62,23,8.88,CA,1670015539
138,reconquista,-29.15,-59.65,33.19,21,28,3.52,AR,1670015537
139,pangkalanbuun,-2.6833,111.6167,23.57000000000005,97,100,1.04,ID,1670015540
140,makakilo city,21.3469,-158.0858,27.210000000000036,62,20,4.63,US,1670015540
141,tomatlan,19.9333,-105.25,31.860000000000014,50,0,3.72,MX,1670015541
142,piacabucu,-10.4056,-36.4344,25.420000000000016,80,28,5.12,BR,1670015541
143,chardara,41.2547,67.9692,-2.0499999999999545,48,0,2.89,KZ,1670015542
144,solnechnyy,50.7214,136.6319,-20.43999999999997,86,100,1.32,RU,1670015543
145,husavik,66.0449,-17.3389,1.920000000000016,80,68,2.64,IS,1670015543
146,kaili,-3.4626,120.2147,19.150000000000034,97,100,0.97,ID,1670015544
147,tilichiki,60.4667,166.1,-11.399999999999977,87,100,2.72,RU,1670015544
148,maldonado,-34.6667,-54.9167,18.660000000000025,73,80,5.29,UY,1670015307
149,culaba,11.6578,124.5425,25.689999999999998,90,100,4.96,PH,1670015545
150,ponta do sol,32.6667,-17.1,18.730000000000018,65,84,5.9,PT,1670015546
151,nkhotakota,-12.9274,34.2961,23.660000000000025,75,86,2.43,MW,1670015546
152,saint-joseph,-21.3667,55.6167,22.210000000000036,79,10,1.64,RE,1670015547
153,bambanglipuro,-7.95,110.2833,25.390000000000043,80,99,2.17,ID,1670015548
154,giresun,40.5,38.5,-2.4599999999999795,87,13,0.78,TR,1670015549
155,lesozavodsk,45.4794,133.4244,-13.489999999999952,85,77,3.01,RU,1670015549
156,whitehorse,60.7161,-135.0538,-15.829999999999984,91,48,0.27,CA,1670015722
157,srandakan,-7.9386,110.2506,25.510000000000048,79,99,2.11,ID,1670015550
158,abha,18.2164,42.5053,12.140000000000043,88,0,0.0,SA,1670015551
159,nizhniy tsasuchey,50.5167,115.1333,-20.299999999999983,76,41,5.87,RU,1670015551
160,ilulissat,69.2167,-51.1,8.010000000000048,42,100,13.38,GL,1670015552
161,rocha,-34.4833,-54.3333,19.189999999999998,74,96,5.33,UY,1670015552
162,catalina,32.5056,-110.9211,23.04000000000002,25,100,1.79,US,1670015384
163,lodwar,3.1191,35.5973,28.32000000000005,44,78,8.47,KE,1670015553
164,okhotsk,59.3833,143.3,-24.319999999999965,97,97,3.62,RU,1670015441
165,kaitangata,-46.2817,169.8464,11.520000000000039,59,97,4.58,NZ,1670015554
166,tupik,54.4253,119.9327,-36.41999999999999,99,64,1.14,RU,1670015555
167,hami,42.8,93.45,-8.449999999999989,28,99,1.07,CN,1670015555
168,margate,51.3813,1.3862,6.5,76,100,3.13,GB,1670015556
169,xining,36.6167,101.7667,-5.6299999999999955,42,69,1.67,CN,1670015557
170,atasu,48.6814,71.6433,-14.729999999999961,95,94,3.4,KZ,1670015557
171,pisco,-13.7,-76.2167,20.03000000000003,83,0,3.09,PE,1670015558
172,hobart,-42.8794,147.3294,14.590000000000032,81,0,5.66,AU,1670015464
173,macau,22.2006,113.5461,15.890000000000043,82,40,8.75,MO,1670015559
174,benjamin constant,-4.3831,-70.0311,33.07000000000005,58,40,2.57,BR,1670015559
175,salym,60.0625,71.4789,-23.00999999999999,92,17,2.12,RU,1670015560
176,dikson,73.5069,80.5464,-17.659999999999968,97,62,4.05,RU,1670015561
177,port lincoln,-34.7333,135.8667,19.49000000000001,65,2,3.65,AU,1670015561
178,quimper,48.0,-4.1,5.32000000000005,81,0,3.09,FR,1670015562
179,pevek,69.7008,170.3133,-19.18999999999997,94,100,3.86,RU,1670015562
180,sinnamary,5.3833,-52.95,25.58000000000004,86,100,4.53,GF,1670015563
181,bonfim,3.0833,-59.95,29.05000000000001,64,100,2.84,BR,1670015564
182,immenstadt,47.561,10.2199,0.34000000000003183,85,98,0.45,DE,1670015564
183,zaozerne,45.1582,33.2787,7.050000000000011,85,100,6.54,UA,1670015565
184,yumen,40.2833,97.2,-9.310000000000002,77,100,0.78,CN,1670015565
185,malakal,9.5334,31.6605,27.170000000000016,25,19,2.58,SS,1670015566
186,kudahuvadhoo,2.6708,72.8944,26.49000000000001,78,70,3.33,MV,1670015566
187,tazovskiy,67.4667,78.7,-9.17999999999995,94,100,7.37,RU,1670015567
188,srednekolymsk,67.45,153.6833,-36.329999999999984,98,30,3.09,RU,1670015298
189,kommunisticheskiy,61.6789,64.4819,-18.44999999999999,95,5,2.39,RU,1670015568
190,kenai,60.5544,-151.2583,-8.25,87,0,2.57,US,1670015568
191,makinsk,52.6292,70.4169,-19.419999999999987,99,98,5.02,KZ,1670015569
192,talnakh,69.4865,88.3972,-14.329999999999984,97,100,4.1,RU,1670015570
193,paraiso,9.8383,-83.8656,22.480000000000018,68,37,2.78,CR,1670015570
194,vostok,46.4856,135.8833,-21.45999999999998,93,39,2.44,RU,1670015571
195,laguna,38.421,-121.4238,12.200000000000045,72,0,5.14,US,1670015571
196,lozova,48.8894,36.3176,-1.9799999999999613,59,100,7.67,UA,1670015572
197,santiago,-33.4569,-70.6483,30.710000000000036,26,0,7.2,CL,1670015904
198,poso,-1.3959,120.7524,24.439999999999998,90,100,1.5,ID,1670015573
199,bela,25.9333,81.9833,15.330000000000041,42,0,0.61,IN,1670015573
200,birao,10.2849,22.7882,24.370000000000005,25,86,2.77,CF,1670015574
201,biak,-0.9131,122.8766,24.420000000000016,83,100,0.77,ID,1670015574
202,geraldton,-28.7667,114.6,16.230000000000018,77,75,3.6,AU,1670015575
203,ugoofaaru,5.6667,73.0,27.220000000000027,76,93,2.9,MV,1670015575
204,guarapari,-20.6667,-40.4975,22.160000000000025,95,100,5.71,BR,1670015576
205,opuwo,-18.0607,13.84,24.689999999999998,42,49,3.32,NA,1670015577
206,lensk,60.7253,114.9278,-21.23999999999998,92,100,5.71,RU,1670015453
207,shingu,33.7333,135.9833,5.560000000000002,74,3,2.21,JP,1670015578
208,los llanos de aridane,28.6585,-17.9182,17.860000000000014,93,40,10.29,ES,1670015476
209,seymchan,62.8833,152.4333,-36.95999999999998,100,83,0.51,RU,1670015578
210,sola,-13.8833,167.55,27.850000000000023,76,95,5.91,VU,1670015579
211,ginda,30.6945,78.4932,10.160000000000025,32,100,1.26,IN,1670015580
212,santa rosa,14.3122,121.1114,26.99000000000001,82,95,5.28,PH,1670015385
213,airai,-8.9266,125.4092,14.700000000000045,78,74,0.87,TL,1670015581
214,merauke,-8.4667,140.3333,25.900000000000034,85,87,3.15,ID,1670015581
215,mar del plata,-38.0023,-57.5575,22.129999999999995,68,0,3.13,AR,1670015343
216,aksarka,66.5606,67.7975,-13.979999999999961,92,93,2.47,RU,1670015582
217,acarau,-2.8856,-40.12,26.710000000000036,68,97,8.09,BR,1670015583
218,turbat,26.0023,63.044,19.950000000000045,28,0,2.97,PK,1670015584
219,urucara,-2.5364,-57.76,25.930000000000007,89,100,1.2,BR,1670015584
220,lorengau,-2.0226,147.2712,27.30000000000001,79,100,1.03,PG,1670015585
221,torbay,47.6666,-52.7314,2.640000000000043,69,19,2.68,CA,1670015586
222,shu,43.5983,73.7614,-3.4599999999999795,66,0,2.36,KZ,1670015586
223,beloha,-25.1667,45.05,23.650000000000034,85,100,1.44,MG,1670015587
224,wukari,7.85,9.7833,26.170000000000016,27,72,2.15,NG,1670015588
225,tuatapere,-46.1333,167.6833,11.760000000000048,55,100,1.52,NZ,1670015588
226,oranjemund,-28.55,16.4333,15.25,73,0,8.18,NA,1670015589
227,lipari,38.4674,14.954,16.29000000000002,67,100,5.87,IT,1670015589
228,chicholi,21.4667,79.6833,16.400000000000034,70,10,1.57,IN,1670015590
229,batagay-alyta,67.8006,130.4114,-23.589999999999975,92,100,1.92,RU,1670015590
230,ankang,32.68,109.0172,4.350000000000023,79,99,0.69,CN,1670015591
231,mossendjo,-2.9506,12.7261,20.960000000000036,99,99,0.43,CG,1670015592
232,souillac,-20.5167,57.5167,21.210000000000036,88,20,1.54,MU,1670015592
233,manicore,-5.8092,-61.3003,25.610000000000014,87,97,0.95,BR,1670015593
234,ouadda,8.0777,22.4007,25.49000000000001,24,87,3.45,CF,1670015593
235,egvekinot,66.3167,-179.1667,-8.629999999999995,89,100,3.25,RU,1670015594
236,keetmanshoop,-26.5833,18.1333,20.390000000000043,31,0,6.3,NA,1670015595
237,chokurdakh,70.6333,147.9167,-21.269999999999982,95,100,9.57,RU,1670015595
238,florestopolis,-22.8633,-51.3872,26.939999999999998,62,57,0.72,BR,1670015596
239,vogan,6.3333,1.5333,25.460000000000036,78,88,0.73,TG,1670015354
240,juegang,32.3174,121.1855,8.32000000000005,71,100,0.91,CN,1670015598
241,cienfuegos,22.1461,-80.4356,28.420000000000016,56,26,7.51,CU,1670015598
242,bengkulu,-3.8004,102.2655,23.140000000000043,93,100,3.26,ID,1670015599
243,kholm,59.2667,32.85,-6.279999999999973,75,100,3.13,RU,1670015600
244,nishihara,26.1842,127.7558,21.03000000000003,97,75,6.17,JP,1670015600
245,kizema,61.113,44.8302,-9.20999999999998,92,100,2.11,RU,1670015601
246,noumea,-22.2763,166.4572,30.99000000000001,99,100,2.72,NC,1670015601
247,fortuna,40.5982,-124.1573,10.520000000000039,64,0,4.12,US,1670015602
248,ormara,25.2088,64.6357,23.670000000000016,32,0,6.27,PK,1670015603
249,ponta delgada,37.7333,-25.6667,12.5,62,40,7.2,PT,1670015603
250,aitape,-3.1374,142.3475,25.920000000000016,85,100,2.68,PG,1670015605
251,deputatskiy,69.3,139.9,-26.24999999999997,88,100,11.03,RU,1670015605
252,rosetta,31.4044,30.4164,18.970000000000027,71,99,4.69,EG,1670015606
253,vila velha,-20.3297,-40.2925,22.970000000000027,98,100,4.12,BR,1670015606
254,gboko,7.3179,8.9951,28.07000000000005,23,100,1.93,NG,1670015607
255,mezen,65.8522,44.24,-6.189999999999998,96,100,1.82,RU,1670015608
256,sochaczew,52.2294,20.2384,-2.099999999999966,90,100,3.95,PL,1670015608
257,manono,-7.3,27.4167,19.620000000000005,93,41,0.52,CD,1670015609
258,vila franca do campo,37.7167,-25.4333,12.330000000000041,63,28,9.7,PT,1670015610
259,loiza,18.4313,-65.8802,27.99000000000001,72,40,5.66,PR,1670015610
260,hamilton,39.1834,-84.5333,14.0,38,75,9.26,US,1670015611
261,vanimo,-2.6741,141.3028,24.879999999999995,90,100,3.03,PG,1670015611
262,luz,-19.8014,-45.6856,26.129999999999995,64,100,1.85,BR,1670015612
263,luwuk,-0.9516,122.7875,24.910000000000025,85,100,0.81,ID,1670015612
264,te anau,-45.4167,167.7167,10.120000000000005,58,99,0.71,NZ,1670015607
265,mareeba,-17.0,145.4333,23.400000000000034,92,52,0.84,AU,1670015613
266,imbituba,-28.24,-48.6703,24.08000000000004,91,17,6.45,BR,1670015325
267,amarante do maranhao,-5.5667,-46.7422,23.980000000000018,91,99,1.63,BR,1670015614
268,kissimmee,28.3047,-81.4167,26.140000000000043,53,20,7.72,US,1670015390
269,flinders,-34.5833,150.8552,18.360000000000014,88,11,2.68,AU,1670015615
270,broome,42.2506,-75.833,4.7000000000000455,57,100,3.09,US,1670015616
271,vestmannaeyjar,63.4427,-20.2734,6.850000000000023,83,18,4.62,IS,1670015616
272,callaway,30.153,-85.5699,23.840000000000032,63,20,5.66,US,1670015617
273,anchorage,61.2181,-149.9003,-3.9699999999999704,87,0,0.0,US,1670015402
274,anloga,5.7947,0.8973,27.25,75,94,0.71,GH,1670015618
275,antalaha,-14.9003,50.2788,23.840000000000032,83,97,0.42,MG,1670015618
276,ucluelet,48.9329,-125.5528,4.490000000000009,82,100,1.34,CA,1670015620
277,sangar,63.9242,127.4739,-33.01999999999998,95,100,2.0,RU,1670015620
278,weleri,-6.9713,110.0666,25.939999999999998,87,91,1.24,ID,1670015621
279,sokode,8.9833,1.1333,26.620000000000005,32,51,1.6,TG,1670015621
280,provideniya,64.3833,-173.3,-0.5600000000000023,91,100,5.84,RU,1670015622
281,lafiagi,8.8667,5.4167,28.310000000000002,32,88,0.95,NG,1670015622
282,kimberley,-28.7323,24.7623,23.129999999999995,19,30,6.15,ZA,1670015623
283,luderitz,-26.6481,15.1594,16.24000000000001,69,0,10.79,NA,1670015624
284,zharkent,44.1628,80.0,-3.259999999999991,63,90,2.02,KZ,1670015624
285,yairipok,24.6667,94.0667,13.010000000000048,92,2,0.74,IN,1670015625
286,kuri,37.5986,127.1394,-1.17999999999995,92,100,1.54,KR,1670015625
287,kahului,20.8947,-156.47,27.200000000000045,71,40,8.75,US,1670015434
288,puerto baquerizo moreno,-0.9,-89.6,22.55000000000001,88,75,5.14,EC,1670015627
289,namatanai,-3.6667,152.4333,26.090000000000032,85,100,0.74,PG,1670015627
290,plougastel-daoulas,48.3667,-4.3667,6.689999999999998,90,100,1.54,FR,1670015628
291,teluk intan,4.0259,101.0213,22.730000000000018,96,99,0.98,MY,1670015628
292,bol,13.4586,14.7147,26.08000000000004,42,37,4.95,TD,1670015629
293,san quintin,30.4833,-115.95,17.27000000000004,55,99,4.76,MX,1670015629
294,limon,10.0,-83.0333,27.939999999999998,78,40,3.6,CR,1670015630
295,prim decembrie,44.2908,26.0581,3.9500000000000455,86,100,1.05,RO,1670015630
296,severo-yeniseyskiy,60.3725,93.0408,-24.23999999999998,99,100,2.08,RU,1670015631
297,skjervoy,70.0311,20.9714,-1.0,71,1,5.6,NO,1670015632
298,nouadhibou,20.931,-17.0347,18.140000000000043,82,50,8.14,MR,1670015632
299,dingtao,35.0683,115.5625,0.03000000000002956,45,82,0.49,CN,1670015633
300,tonantins,-2.8731,-67.8022,28.28000000000003,77,99,1.31,BR,1670015633
301,eydhafushi,5.1033,73.0708,27.04000000000002,77,100,3.41,MV,1670015634
302,kavaratti,10.5669,72.642,27.680000000000007,74,41,2.93,IN,1670015634
303,longyearbyen,78.2186,15.6401,3.910000000000025,75,75,6.17,SJ,1670015635
304,gwadar,25.1216,62.3254,23.900000000000034,40,0,2.59,PK,1670015636
305,awjilah,29.1081,21.2869,15.260000000000048,42,97,3.46,LY,1670015636
306,kasongo-lunda,-6.4667,16.8167,20.850000000000023,97,100,0.69,CD,1670015375
307,mayo,38.8876,-76.5119,10.629999999999995,62,0,4.63,US,1670015637
308,raudeberg,61.9875,5.1352,2.3700000000000045,59,21,3.94,NO,1670015638
309,aswan,24.0934,32.907,18.700000000000045,28,1,4.33,EG,1670015639
310,raton,36.9034,-104.4391,12.340000000000032,26,0,13.89,US,1670015545
311,linhares,-19.3911,-40.0722,21.83000000000004,97,100,1.84,BR,1670015639
312,phuket,8.0,98.25,29.510000000000048,94,20,0.51,TH,1670015640
313,haldia,22.0605,88.1097,18.360000000000014,38,0,3.17,IN,1670015640
314,gravdal,68.1214,13.5031,2.9399999999999977,70,20,2.57,NO,1670015641
315,sioux lookout,50.1001,-91.917,-4.1200000000000045,92,100,2.51,CA,1670015383
316,ariquemes,-9.9133,-63.0408,27.950000000000045,65,99,2.48,BR,1670015571
317,ca mau,9.1769,105.15,23.970000000000027,92,100,4.32,VN,1670015642
318,ribeira grande,38.5167,-28.7,14.32000000000005,51,40,5.36,PT,1670015643
319,letlhakane,-21.4167,25.5833,26.920000000000016,25,20,3.1,BW,1670015644
320,praia,14.9215,-23.5087,23.30000000000001,64,40,5.66,CV,1670015644
321,gawler,-34.6,138.7333,23.04000000000002,49,0,2.49,AU,1670015645
322,petropavlovka,50.6114,105.3196,-22.309999999999974,88,77,2.46,RU,1670015645
323,foshan,23.0268,113.1315,12.75,67,62,3.27,CN,1670015491
324,panama city,8.9936,-79.5197,29.05000000000001,81,40,3.6,PA,1670015545
325,bakel,14.905,-12.4568,28.77000000000004,15,74,3.77,SN,1670015647
326,dinguiraye,11.3,-10.7167,25.860000000000014,41,35,0.78,GN,1670015648
327,henties bay,-22.116,14.2845,15.740000000000009,89,2,4.34,NA,1670015649
328,kruisfontein,-34.0033,24.7314,17.160000000000025,74,1,10.43,ZA,1670015649
329,siocon,7.7061,122.1353,25.55000000000001,88,83,1.75,PH,1670015650
330,basco,20.4487,121.9702,26.660000000000025,79,17,8.73,PH,1670015651
331,arshan,46.2732,44.22,-7.789999999999964,79,100,8.0,RU,1670015651
332,port augusta,-32.5,137.7667,23.82000000000005,26,0,1.62,AU,1670015652
333,banepa,27.6298,85.5214,9.180000000000007,87,20,1.54,NP,1670015652
334,nanortalik,60.1432,-45.2371,1.7700000000000387,96,100,10.45,GL,1670015653
335,changtu,42.7788,124.0955,-10.629999999999995,46,23,6.19,CN,1670015654
336,altay,47.8667,88.1167,-17.92999999999998,74,84,2.99,CN,1670015655
337,la asuncion,11.0333,-63.8628,26.090000000000032,77,66,6.44,VE,1670015655
338,oltu,40.5498,42.0013,5.490000000000009,90,79,0.97,TR,1670015656
339,college,64.8569,-147.8028,-11.0,81,100,0.0,US,1670015657
340,mount isa,-20.7333,139.5,18.870000000000005,55,3,0.0,AU,1670015657
341,puerto suarez,-18.95,-57.8,31.310000000000002,51,40,4.63,BO,1670015658
342,cabedelo,-6.9811,-34.8339,27.370000000000005,70,25,4.0,BR,1670015658
343,ancud,-41.8697,-73.8203,14.300000000000011,92,87,3.92,CL,1670015659
344,myre,69.1036,15.9492,2.160000000000025,70,67,3.46,NO,1670015660
345,asfi,32.2994,-9.2372,16.810000000000002,80,37,2.37,MA,1670015660
346,mehamn,71.0357,27.8492,-0.029999999999972715,93,0,3.6,NO,1670015661
347,kosh-agach,50.0,88.6667,-26.899999999999977,76,5,1.35,RU,1670015661
348,homer,59.6425,-151.5483,-1.2199999999999704,71,0,3.58,US,1670015662
349,emba,48.8264,58.1442,-13.409999999999968,70,19,7.04,KZ,1670015662
350,asti,44.8979,8.2068,7.850000000000023,74,100,2.08,IT,1670015663
351,general roca,-39.0333,-67.5833,34.23000000000002,10,16,5.65,AR,1670015664
352,adrar,20.5022,-10.0711,21.640000000000043,17,0,3.77,MR,1670015664
353,lompoc,34.6391,-120.4579,17.230000000000018,89,99,1.79,US,1670015665
354,oriximina,-1.7656,-55.8661,26.730000000000018,85,100,0.56,BR,1670015665
355,komsomolskiy,40.4272,71.7189,1.400000000000034,86,75,2.06,UZ,1670015666
356,saint-augustin,51.226,-58.6502,-6.609999999999957,80,10,4.57,CA,1670015593
357,grindavik,63.8424,-22.4338,4.260000000000048,100,40,2.06,IS,1670015667
358,kodiak,57.79,-152.4072,-3.269999999999982,63,0,2.06,US,1670015668
359,butaritari,3.0707,172.7902,27.360000000000014,70,2,7.47,KI,1670015668
360,naze,28.3667,129.4833,17.5,89,100,7.92,JP,1670015669
361,gamba,-2.65,10.0,24.560000000000002,91,100,1.89,GA,1670015669
362,yarmouth,41.7057,-70.2286,6.650000000000034,71,75,3.09,US,1670015670
363,rundu,-17.9333,19.7667,23.08000000000004,26,0,2.61,NA,1670015670
364,kashan,33.9831,51.4364,10.600000000000023,53,1,2.03,IR,1670015671
365,waddan,29.1614,16.139,16.620000000000005,42,98,6.56,LY,1670015671
366,gezing,47.9178,13.1299,1.8600000000000136,99,75,1.54,AT,1670015672
367,rodeo,38.033,-122.2669,12.900000000000034,70,0,3.6,US,1670015673
368,gorno-altaysk,51.9561,85.955,-23.069999999999965,95,13,1.74,RU,1670015673
369,hope,33.6671,-93.5916,13.03000000000003,84,100,3.32,US,1670015437
370,darhan,49.4867,105.9228,-23.329999999999984,93,20,2.8,MN,1670015674
371,windhoek,-22.5594,17.0832,23.390000000000043,41,19,1.38,NA,1670015675
372,kalmar,56.6616,16.3616,1.9600000000000364,81,100,5.66,SE,1670015675
373,tinogboc,12.0074,121.4122,27.680000000000007,80,92,11.14,PH,1670015676
374,petropavlovsk-kamchatskiy,53.0452,158.6483,-15.669999999999959,85,20,3.0,RU,1670015677
375,ostersund,63.1792,14.6357,-1.329999999999984,100,100,3.58,SE,1670015677
376,metro,-5.1131,105.3067,23.400000000000034,90,100,2.19,ID,1670015678
377,talcahuano,-36.7167,-73.1167,19.82000000000005,64,0,7.2,CL,1670015517
378,kysyl-syr,63.8986,122.7617,-26.97999999999999,99,100,1.0,RU,1670015679
379,asahikawa,43.7678,142.3703,-6.279999999999973,90,100,1.52,JP,1670015417
380,rio cuarto,-33.1307,-64.3499,30.370000000000005,21,1,4.87,AR,1670015680
381,leshukonskoye,64.8989,45.7622,-7.269999999999982,96,100,1.99,RU,1670015681
382,taiyuan,37.8694,112.5603,-6.079999999999984,68,0,2.0,CN,1670015682
383,woodward,36.4337,-99.3904,25.57000000000005,24,75,12.35,US,1670015682
384,iki-burul,45.8208,44.6472,-2.7099999999999795,72,100,8.16,RU,1670015683
385,pitanga,-24.7572,-51.7614,22.439999999999998,89,45,0.36,BR,1670015683
386,dunedin,-45.8742,170.5036,11.560000000000002,65,99,2.24,NZ,1670015451
387,diego de almagro,-26.3667,-70.05,24.160000000000025,15,0,5.98,CL,1670015684
388,valparaiso,-33.0393,-71.6273,19.129999999999995,86,0,5.14,CL,1670015526
389,kaliua,-5.0606,31.7936,17.590000000000032,93,13,1.03,TZ,1670015685
390,hasaki,35.7333,140.8333,7.900000000000034,60,99,0.49,JP,1670015686
391,barentu,15.1139,37.5928,21.82000000000005,53,0,2.21,ER,1670015686
392,assiniboia,49.6334,-105.9845,-19.349999999999966,86,100,5.87,CA,1670015687
393,bay city,43.5945,-83.8889,8.0,50,100,7.72,US,1670015669
394,port blair,11.6667,92.75,26.660000000000025,80,79,3.39,IN,1670015688
395,cayenne,4.9333,-52.3333,26.02000000000004,89,75,0.51,GF,1670015688
396,kamenka,51.3223,42.7678,-6.029999999999973,82,66,5.02,RU,1670015689
397,waitara,-38.925,174.25,18.460000000000036,53,1,5.12,NZ,1670015690
398,iranshahr,27.2025,60.6848,15.580000000000041,31,0,0.22,IR,1670015690
399,coquimbo,-29.9533,-71.3436,16.850000000000023,82,75,5.14,CL,1670015691
400,krasnyy chikoy,50.3643,108.7512,-18.659999999999968,87,100,5.5,RU,1670015692
401,arlit,18.7369,7.3853,24.140000000000043,17,75,3.28,NE,1670015692
402,roald,62.5833,6.1333,2.9600000000000364,69,0,5.14,NO,1670015693
403,bozhou,33.8772,115.7703,0.05000000000001137,56,86,0.74,CN,1670015693
404,labuan,5.2767,115.2417,26.810000000000002,81,100,3.1,MY,1670015694
405,athabasca,54.7169,-113.2854,-16.549999999999955,78,22,4.82,CA,1670015694
406,port moresby,-9.4431,147.1797,25.49000000000001,79,97,2.06,PG,1670015695
407,ban nahin,18.2418,104.2122,17.28000000000003,88,11,1.63,LA,1670015696
408,moranbah,-22.0016,148.0466,21.260000000000048,71,70,7.44,AU,1670015696
409,inirida,3.8653,-67.9239,29.310000000000002,64,100,1.26,CO,1670015697
410,bjerkvik,68.5597,17.5189,-2.099999999999966,79,3,3.44,NO,1670015697
411,katsuura,35.1333,140.3,10.82000000000005,69,100,3.04,JP,1670015594
412,touros,-5.1989,-35.4608,26.170000000000016,71,99,5.6,BR,1670015698
413,lock haven,41.137,-77.4469,5.5,52,24,2.8,US,1670015699
414,segezha,63.7415,34.3222,-4.609999999999957,96,100,1.73,RU,1670015699
415,suratgarh,29.3167,73.9,17.58000000000004,24,100,1.83,IN,1670015700
416,sugal,5.6622,125.4617,25.689999999999998,82,100,5.03,PH,1670015700
417,khorixas,-20.3667,14.9667,23.879999999999995,31,41,3.3,NA,1670015701
418,virginia beach,36.8529,-75.978,14.450000000000045,60,40,3.6,US,1670015583
419,davila,18.4726,120.5763,22.99000000000001,82,20,6.52,PH,1670015702
420,sakyla,61.0333,22.3333,-5.2099999999999795,96,81,2.49,FI,1670015702
421,kot kapura,30.5833,74.9,15.78000000000003,31,100,2.0,IN,1670015703
422,ouesso,1.6136,16.0517,21.99000000000001,91,76,0.69,CG,1670015704
423,tiznit,29.5833,-9.5,13.129999999999995,86,60,2.53,MA,1670015705
424,atar,20.5169,-13.0499,20.82000000000005,19,0,3.16,MR,1670015705
425,kushiro,42.975,144.3747,-1.2799999999999727,47,32,2.38,JP,1670015706
426,makhachkala,42.9764,47.5024,6.990000000000009,74,100,6.74,RU,1670015706
427,havre-saint-pierre,50.2334,-63.5986,-4.479999999999961,74,70,6.87,CA,1670015707
428,visnes,59.3556,5.2242,4.560000000000002,60,75,4.12,NO,1670015708
429,ozernovskiy,51.5,156.5167,-3.069999999999993,62,100,9.14,RU,1670015709
430,kushima,31.4583,131.2333,8.470000000000027,82,67,2.34,JP,1670015709
431,shimoda,34.6667,138.95,7.840000000000032,75,100,4.39,JP,1670015631
432,port-cartier,50.0334,-66.8654,-7.949999999999989,83,100,2.6,CA,1670015710
433,wawa,9.9022,4.4192,27.230000000000018,38,70,0.45,NG,1670015711
434,bossangoa,6.4926,17.4552,26.150000000000034,53,100,1.23,CF,1670015712
435,san ciro de acosta,21.6333,-99.8167,24.54000000000002,49,15,2.15,MX,1670015712
436,rawson,-43.3002,-65.1023,28.810000000000002,26,83,9.68,AR,1670015713
437,sao goncalo do amarante,-3.6072,-38.9683,27.29000000000002,69,93,4.73,BR,1670015714
438,oconomowoc,43.1117,-88.4993,9.100000000000023,61,100,5.14,US,1670015714
439,kiama,-34.6833,150.8667,19.439999999999998,85,7,0.89,AU,1670015715
440,dickson,36.077,-87.3878,14.75,63,75,4.12,US,1670015715
441,borogontsy,62.6683,131.1683,-33.43999999999997,98,100,1.47,RU,1670015716
442,kismayo,-0.3582,42.5454,26.04000000000002,77,90,4.98,SO,1670015717
443,manuk mangkaw,4.8,119.85,27.460000000000036,76,100,1.92,PH,1670015717
444,broken hill,-31.95,141.4333,23.140000000000043,37,0,5.05,AU,1670015718
445,parabel,58.6978,81.4825,-24.93999999999997,92,21,2.74,RU,1670015719
446,bolitoc,15.7395,119.8769,25.58000000000004,76,98,1.78,PH,1670015719
447,liverpool,53.4106,-2.9779,7.3799999999999955,95,20,2.74,GB,1670015720
448,lazaro cardenas,17.9583,-102.2,29.04000000000002,65,4,5.04,MX,1670015720
449,tezu,27.9167,96.1667,16.370000000000005,41,0,1.93,IN,1670015721
450,eureka,40.8021,-124.1637,10.670000000000016,62,100,3.13,US,1670015722
451,viransehir,37.2353,39.7631,11.850000000000023,74,10,2.98,TR,1670015723
452,lockport,41.5895,-88.0578,11.050000000000011,60,100,8.94,US,1670015723
453,green river,41.5286,-109.4662,-3.8999999999999773,58,75,3.13,US,1670015724
454,robore,-18.3333,-59.75,27.650000000000034,56,100,3.35,BO,1670015725
455,domoni,-12.2569,44.5319,25.74000000000001,82,21,1.76,KM,1670015725
456,adre,13.4667,22.2,24.24000000000001,21,0,7.86,TD,1670015726
457,port hardy,50.6996,-127.4199,2.920000000000016,67,67,10.57,CA,1670015721
458,abu kamal,34.4506,40.9171,14.660000000000025,70,37,3.62,SY,1670015727
459,douentza,14.9951,-2.9517,26.600000000000023,16,48,2.07,ML,1670015727
460,avera,33.194,-82.5271,19.75,64,37,3.08,US,1670015442
461,khonsa,27.0167,95.5667,13.150000000000034,73,0,1.57,IN,1670015728
462,miami,25.7743,-80.1937,27.010000000000048,66,40,7.2,US,1670015650
463,mecca,21.4267,39.8261,25.090000000000032,70,1,2.42,SA,1670015729
464,san jeronimo,-11.9472,-75.2829,19.860000000000014,24,90,4.76,PE,1670015730
465,fenyi,27.8112,114.6681,4.890000000000043,86,99,0.63,CN,1670015730
466,genhe,50.7833,121.5167,-35.48999999999998,100,74,0.48,CN,1670015539
467,palmer,42.1584,-72.3287,6.07000000000005,52,75,3.6,US,1670015731
468,nome,64.5011,-165.4064,1.0400000000000205,93,100,4.12,US,1670015732
469,turukhansk,65.8167,87.9833,-17.00999999999999,97,100,3.56,RU,1670015732
470,nha trang,12.25,109.1833,24.0,94,100,2.73,VN,1670015567
471,altamont,42.2068,-121.7372,-0.67999999999995,71,0,2.24,US,1670015733
472,cootamundra,-34.65,148.0333,18.30000000000001,64,19,2.41,AU,1670015486
473,ilorin,8.5,4.55,28.870000000000005,34,67,2.61,NG,1670015734
474,batouri,4.4333,14.3667,23.180000000000007,59,99,1.53,CM,1670015735
475,teya,60.3778,92.6267,-23.889999999999986,99,100,1.61,RU,1670015735
476,acapulco,16.8634,-99.8901,29.900000000000034,70,0,3.6,MX,1670015736
477,ciudad bolivar,8.1222,-63.5497,31.470000000000027,44,100,2.13,VE,1670015736
478,kintampo,8.0563,-1.7306,27.02000000000004,50,30,2.25,GH,1670015737
479,quepos,9.4236,-84.1652,26.860000000000014,77,23,2.08,CR,1670015738
480,ahipara,-35.1667,173.1667,16.83000000000004,55,56,5.17,NZ,1670015738
481,the pas,53.8251,-101.2541,-20.869999999999976,92,78,3.53,CA,1670015484
482,dickinson,29.4608,-95.0513,27.05000000000001,86,100,7.72,US,1670015615
483,maceio,-9.6658,-35.7353,25.689999999999998,83,20,3.6,BR,1670015468
484,payo,-3.7508,103.6372,22.090000000000032,96,100,0.54,ID,1670015740
485,yerbogachen,61.2767,108.0108,-16.129999999999995,96,100,3.7,RU,1670015741
486,karratha,-20.7377,116.8463,26.620000000000005,53,4,4.19,AU,1670015741
487,san cristobal,7.7669,-72.225,24.100000000000023,77,93,1.53,VE,1670015742
488,jaguaruna,-28.615,-49.0256,23.680000000000007,93,86,3.99,BR,1670015742
489,saint anthony,45.0205,-93.218,3.7800000000000296,70,0,4.12,US,1670015518
490,hambantota,6.1241,81.1185,24.640000000000043,86,78,2.82,LK,1670015743
491,christchurch,-43.5333,172.6333,12.189999999999998,74,100,3.09,NZ,1670015560
492,puerto maldonado,-12.6,-69.1833,23.220000000000027,88,75,1.54,PE,1670015744
493,mbeya,-8.9,33.45,15.270000000000039,77,95,1.41,TZ,1670015745
494,arys,42.4252,68.795,-4.1299999999999955,43,0,1.44,KZ,1670015745
495,areia branca,-4.9561,-37.1369,29.110000000000014,72,56,8.62,BR,1670015746
496,layou,13.2,-61.2667,25.660000000000025,74,40,3.6,VC,1670015746
497,vardo,70.3705,31.1107,-0.009999999999990905,93,100,4.12,NO,1670015747
498,xinyang,32.1228,114.0656,1.6000000000000227,67,6,1.46,CN,1670015748
499,north bend,43.4065,-124.2243,10.090000000000032,82,40,6.17,US,1670015722
500,coahuayana,18.7333,-103.6833,31.160000000000025,55,4,3.06,MX,1670015749
501,matamoros,25.5333,-103.25,28.060000000000002,35,0,3.6,MX,1670015749
502,mancio lima,-7.6142,-72.8958,31.04000000000002,66,40,1.54,BR,1670015750
503,wagar,16.1525,36.2032,24.379999999999995,65,0,7.11,SD,1670015751
504,isilkul,54.9109,71.2728,-20.889999999999986,88,6,2.85,RU,1670015751
505,iskateley,67.6803,53.1512,-4.089999999999975,97,100,3.36,RU,1670015752
506,saint-pierre,-21.3393,55.4781,22.82000000000005,73,0,2.57,RE,1670015752
507,kashi,39.4547,75.9797,-4.439999999999998,30,100,1.0,CN,1670015753
508,zadar,44.1197,15.2422,9.340000000000032,100,75,3.6,HR,1670015753
509,lavras,-21.2453,-44.9997,21.970000000000027,83,100,2.44,BR,1670015754
510,yar-sale,66.8333,70.8333,-10.629999999999995,93,98,4.7,RU,1670015755
511,progreso,21.2833,-89.6667,31.060000000000002,73,1,8.32,MX,1670015618
512,muriti,-1.9833,32.9167,22.730000000000018,66,16,2.51,TZ,1670015755
513,bay saint louis,30.3088,-89.33,24.04000000000002,84,75,4.12,US,1670015756
514,emerald,-23.5333,148.1667,20.189999999999998,72,0,4.19,AU,1670015757
515,labuhan,-6.8844,112.2051,24.79000000000002,86,100,3.96,ID,1670015757
516,bushenyi,-0.5853,30.2114,15.330000000000041,89,30,1.06,UG,1670015758
517,melilla,35.2937,-2.9383,13.210000000000036,100,75,1.03,ES,1670015758
518,aykhal,66.0,111.5,-18.129999999999967,99,100,3.58,RU,1670015759
519,san pedro,14.35,121.0167,26.57000000000005,84,20,1.54,PH,1670015760
520,bandarbeyla,9.4942,50.8122,25.54000000000002,72,99,7.45,SO,1670015760
521,ambalavao,-21.8333,46.9333,18.79000000000002,91,84,1.19,MG,1670015761
522,kirkland,47.6815,-122.2087,4.8700000000000045,83,100,3.09,US,1670015694
523,yelizovo,53.1873,158.3805,-14.919999999999959,85,20,3.0,RU,1670015762
524,ipixuna,-1.7625,-48.8043,25.460000000000036,91,100,1.3,BR,1670015763
525,lata,40.1629,-8.3327,5.600000000000023,82,0,2.34,PT,1670015764
526,grafton,42.207,-71.6856,5.740000000000009,53,57,0.45,US,1670015764
527,toamasina,-18.1667,49.3833,23.629999999999995,84,41,2.29,MG,1670015765
528,teguise,29.0605,-13.564,17.120000000000005,77,20,2.06,ES,1670015765
529,akot,21.0964,77.0586,19.120000000000005,47,39,2.12,IN,1670015766
530,portknockie,57.7025,-2.8599,8.879999999999995,87,100,6.26,GB,1670015766
531,westport,41.1415,-73.3579,6.560000000000002,64,100,3.09,US,1670015680
532,george town,5.4112,100.3354,26.24000000000001,89,20,0.0,MY,1670015482
533,ketchikan,55.3422,-131.6461,-0.7399999999999523,40,0,2.57,US,1670015768
534,medvedevo,56.6339,47.804,-18.42999999999998,97,25,1.5,RU,1670015768
535,wladyslawowo,54.7909,18.4009,0.8600000000000136,73,100,4.59,PL,1670015769
536,santa isabel do rio negro,-0.4139,-65.0192,26.700000000000045,85,94,1.42,BR,1670015769
537,prokhorovka,51.0374,36.7325,-4.239999999999952,80,100,6.19,RU,1670015770
538,lander,42.833,-108.7307,-2.159999999999968,36,20,4.12,US,1670015557
539,nelson bay,-32.7167,152.15,20.620000000000005,70,100,3.13,AU,1670015607
540,winton,37.3894,-120.6133,12.010000000000048,73,0,0.0,US,1670015493
541,kunya,12.2233,8.5325,18.090000000000032,63,61,0.0,NG,1670015772
542,virden,39.5009,-89.7679,12.04000000000002,65,100,10.99,US,1670015773
543,sundargarh,22.1167,84.0333,16.310000000000002,65,0,1.59,IN,1670015773
544,santa ines,-3.6667,-45.38,25.470000000000027,88,95,1.31,BR,1670015774
545,knysna,-34.0363,23.0471,16.07000000000005,71,11,7.27,ZA,1670015774
546,huarmey,-10.0681,-78.1522,22.600000000000023,73,94,5.5,PE,1670015775
547,puro,12.4841,123.3827,25.930000000000007,87,99,6.32,PH,1670015521
548,canon city,38.441,-105.2424,15.090000000000032,21,0,12.86,US,1670015776
549,nuuk,64.1835,-51.7216,2.7100000000000364,93,100,22.8,GL,1670015777
550,bintulu,3.1667,113.0333,23.230000000000018,100,40,1.03,MY,1670015777
551,byron bay,-28.65,153.6167,16.510000000000048,79,95,7.01,AU,1670015490
552,urengoy,65.9667,78.3667,-12.70999999999998,95,100,5.9,RU,1670015778
553,la sarre,48.8002,-79.1996,0.18999999999999773,79,100,6.23,CA,1670015779
554,xiashi,30.5363,120.6864,7.220000000000027,93,100,0.83,CN,1670015780
555,bathsheba,13.2167,-59.5167,26.700000000000045,84,75,7.72,BB,1670015780
556,tiarei,-17.5333,-149.3333,29.010000000000048,82,20,7.76,PF,1670015781
557,tarko-sale,64.9225,77.785,-16.19999999999999,96,87,7.09,RU,1670015781
558,kempele,64.9131,25.5034,-3.819999999999993,100,100,1.54,FI,1670015782
559,sao gabriel da cachoeira,-0.1303,-67.0892,28.879999999999995,69,95,0.58,BR,1670015782
560,santa fe,-31.6333,-60.7,30.57000000000005,34,34,3.13,AR,1670015558
561,nemuro,43.3236,145.575,-0.3299999999999841,46,17,4.61,JP,1670015783
562,dingle,10.9995,122.6711,23.920000000000016,93,95,3.32,PH,1670015784
563,mahibadhoo,3.7833,72.9667,26.55000000000001,77,100,2.66,MV,1670015785
564,balotra,25.8333,72.2333,17.910000000000025,32,0,1.74,IN,1670015786
565,asau,46.4333,26.4,-0.39999999999997726,97,98,0.2,RO,1670015787
566,grand gaube,-20.0064,57.6608,21.32000000000005,78,6,3.04,MU,1670015787
567,kenora,49.8167,-94.4337,-8.45999999999998,86,100,4.63,CA,1670015788
568,mocuba,-16.8392,36.9856,20.78000000000003,93,68,2.14,MZ,1670015789
569,chuzhou,32.3219,118.2978,2.6100000000000136,67,10,1.15,CN,1670015789
570,narrabri,-30.3167,149.7833,18.620000000000005,66,0,1.34,AU,1670015790
571,kota bahru,6.1333,102.2386,23.970000000000027,94,40,0.0,MY,1670015790
572,serenje,-13.2325,30.2352,18.150000000000034,74,57,0.9,ZM,1670015791
573,necochea,-38.5473,-58.7368,22.49000000000001,32,0,4.53,AR,1670015791
574,aklavik,68.2191,-135.0107,-11.0,85,100,2.06,CA,1670015792
575,vitim,59.4511,112.5578,-21.309999999999974,94,100,4.83,RU,1670015792
576,strezhevoy,60.7333,77.5889,-23.43999999999997,84,15,3.89,RU,1670015793
577,leh,34.1667,77.5833,-4.4599999999999795,64,68,1.65,IN,1670015794
578,upata,8.0086,-62.3989,24.02000000000004,84,98,1.94,VE,1670015794
579,nileshwar,12.25,75.1,24.650000000000034,86,51,2.37,IN,1670015795
580,prince rupert,54.3161,-130.3201,-1.169999999999959,47,72,7.72,CA,1670015723
581,honiara,-9.4333,159.95,26.0,89,100,2.29,SB,1670015796
582,eyl,7.9803,49.8164,24.970000000000027,74,8,6.83,SO,1670015796
583,boende,-0.2167,20.8667,23.660000000000025,80,90,1.15,CD,1670015797
584,kungurtug,50.5994,97.5228,-29.47999999999999,98,81,0.54,RU,1670015798
585,hun,29.1268,15.9477,16.32000000000005,42,98,5.27,LY,1670015798
586,tombouctou,20.0,-3.0,21.640000000000043,17,0,0.74,ML,1670015799
587,bairiki,1.3292,172.9752,29.0,70,40,4.63,KI,1670015799
588,voznesenskaya,44.5527,41.0318,3.0600000000000023,77,100,8.59,RU,1670015800
589,invermere,50.5167,-116.0354,-11.46999999999997,73,100,0.85,CA,1670015800
